,City,Cloudiness,Country,Date,Humidity,Temp,Lat,Lng,Wind Speed
0,vaini,40,TO,1602185385,94,75.2,-21.2,-175.2,4.7
1,itoman,75,JP,1602185871,83,77.0,26.12,127.67,9.17
2,new norfolk,100,AU,1602185390,93,52.0,-42.78,147.06,1.48
3,port alfred,81,ZA,1602185393,88,65.7,-33.59,26.89,9.1
4,yellowknife,90,CA,1602185386,100,37.99,62.46,-114.35,12.75
5,tiksi,20,RU,1602185390,92,14.72,71.69,128.87,14.79
6,port elizabeth,100,ZA,1602185390,93,62.6,-33.92,25.57,13.87
7,ponta do sol,75,PT,1602185386,78,73.4,32.67,-17.1,3.36
8,ushuaia,40,AR,1602185386,70,46.4,-54.8,-68.3,23.04
9,bredasdorp,100,ZA,1602185397,87,57.2,-34.53,20.04,14.99
10,shagonar,100,RU,1602185873,80,36.97,51.53,92.8,4.76
11,mataura,8,NZ,1602185387,92,39.0,-46.19,168.86,1.01
12,mahebourg,75,MU,1602185398,88,75.2,-20.41,57.7,10.29
13,south sioux city,1,US,1602185873,27,77.0,42.47,-96.41,20.8
14,villanueva de la serena,86,ES,1602185873,31,73.72,38.98,-5.8,3.04
15,san juan,65,AR,1602185264,15,80.19,-31.54,-68.54,5.91
16,sitka,75,US,1602185873,76,48.2,57.05,-135.33,3.36
17,tual,100,ID,1602185411,83,80.13,-5.67,132.75,14.58
18,fort-de-france,20,MQ,1602185873,62,87.8,14.61,-61.07,9.17
19,kaitangata,5,NZ,1602185396,86,35.38,-46.28,169.85,4.03
20,kyabe,58,TD,1602185873,94,67.86,9.45,18.94,1.77
21,kapaa,40,US,1602185388,66,84.2,22.08,-159.32,12.75
22,mackay,3,AU,1602185873,93,59.0,-21.15,149.2,3.36
23,nybro,100,SE,1602185873,87,54.0,56.74,15.91,4.7
24,hilo,1,US,1602185385,58,82.4,19.73,-155.09,4.94
25,saint-philippe,13,RE,1602185395,88,72.0,-21.36,55.77,4.7
26,leopold,90,AU,1602185874,100,51.8,-38.18,144.47,21.92
27,hofn,63,IS,1602185422,62,45.23,64.25,-15.21,6.76
28,luderitz,0,NA,1602185410,78,58.26,-26.65,15.16,19.08
29,punta arenas,40,CL,1602185388,46,53.6,-53.15,-70.92,27.51
30,oranjemund,27,NA,1602185425,87,58.33,-28.55,16.43,9.86
31,batsfjord,75,NO,1602185873,81,50.0,70.63,29.72,13.87
32,bambous virieux,75,MU,1602185391,88,75.2,-20.34,57.76,10.29
33,port lincoln,0,AU,1602185874,79,48.9,-34.73,135.87,8.55
34,katsuura,75,JP,1602185426,93,60.8,35.13,140.3,16.11
35,farafangana,99,MG,1602185389,88,70.7,-22.82,47.83,7.45
36,arcata,1,US,1602185874,87,64.99,40.87,-124.08,6.93
37,sangar,100,RU,1602185874,95,28.63,63.92,127.47,0.43
38,roros,96,NO,1602185874,93,42.8,62.57,11.38,3.36
39,busselton,100,AU,1602185387,75,51.01,-33.65,115.33,3.49
40,saint george,1,US,1602185178,9,84.0,37.1,-113.58,1.36
41,fairbanks,1,US,1602185405,60,44.01,64.84,-147.72,6.93
42,lompoc,90,US,1602185385,72,62.6,34.64,-120.46,3.36
43,quatre cocos,75,MU,1602185874,88,75.2,-20.21,57.76,10.29
44,novovoronezh,36,RU,1602185875,27,51.8,51.31,39.22,6.71
45,cabo san lucas,5,MX,1602185385,52,91.99,22.89,-109.91,6.93
46,pevek,100,RU,1602185394,98,32.02,69.7,170.31,19.01
47,georgetown,40,MY,1602185392,94,78.8,5.41,100.34,4.34
48,rikitea,96,PF,1602185384,79,73.62,-23.12,-134.97,17.81
49,tasiilaq,88,GL,1602185415,86,31.41,65.61,-37.64,5.21
50,mnogovershinnyy,0,RU,1602185875,87,34.65,53.94,139.92,4.43
51,strezhevoy,100,RU,1602185875,97,32.0,60.73,77.59,6.71
52,tuktoyaktuk,90,CA,1602185384,86,33.8,69.45,-133.04,11.41
53,albany,0,US,1602185264,43,59.0,42.6,-73.97,3.0
54,bluff,11,NZ,1602185387,92,39.0,-46.6,168.33,1.01
55,severo-kurilsk,8,RU,1602185393,80,46.27,50.68,156.12,12.77
56,mehamn,1,NO,1602185874,81,51.8,71.04,27.85,14.99
57,jamestown,90,US,1602185099,58,57.0,42.1,-79.24,11.41
58,flinders,4,AU,1602185874,78,53.01,-34.58,150.86,1.01
59,hobart,75,AU,1602185261,100,52.0,-42.88,147.33,1.97
60,thompson,75,CA,1602185385,59,37.4,55.74,-97.86,4.7
61,cape town,75,ZA,1602185359,76,59.0,-33.93,18.42,23.04
62,dingle,100,PH,1602185397,90,75.65,11.0,122.67,1.74
63,qarqin,91,AF,1602185875,35,54.81,37.42,66.04,5.99
64,puerto varas,90,CL,1602185707,87,55.4,-41.32,-72.99,4.7
65,bom jesus,23,BR,1602185876,12,102.87,-9.07,-44.36,6.98
66,qaanaaq,74,GL,1602185384,76,17.2,77.48,-69.36,7.65
67,cobourg,100,DE,1602185876,85,57.99,50.27,10.97,1.01
68,keti bandar,0,PK,1602185876,76,80.94,24.14,67.45,10.18
69,hurghada,100,EG,1602185875,19,89.6,27.26,33.81,2.57
70,contamana,98,PE,1602185875,33,95.38,-7.33,-75.02,3.69
71,carnarvon,0,AU,1602185391,93,64.4,-24.87,113.63,10.29
72,garmsar,88,IR,1602185875,39,67.12,35.22,52.34,4.56
73,kruisfontein,100,ZA,1602185394,85,63.0,-34.0,24.73,5.01
74,yining,0,CN,1602185419,90,55.44,29.04,114.56,0.49
75,nizhniy kuranakh,76,RU,1602185876,90,33.1,58.84,125.49,2.26
76,vostok,6,RU,1602185876,97,32.13,46.49,135.88,4.74
77,santiago,0,CL,1602185845,25,77.0,-33.46,-70.65,6.93
78,macusani,24,PE,1602185876,52,48.52,-14.08,-70.43,13.35
79,ribeira grande,40,PT,1602185386,88,71.6,38.52,-28.7,8.05
80,lebu,12,CL,1602185387,77,54.68,-37.62,-73.65,7.09
81,sussex,20,US,1602185877,38,60.8,41.18,-74.67,8.05
82,dikson,98,RU,1602185396,94,31.78,73.51,80.55,18.88
83,shubarkuduk,7,KZ,1602185877,64,38.57,49.14,56.49,8.93
84,vestmannaeyjar,20,IS,1602185408,87,42.8,63.44,-20.27,11.41
85,luang prabang,70,LA,1602185877,74,68.97,19.89,102.13,2.84
86,shimoda,100,JP,1602185438,96,64.99,34.67,138.95,3.0
87,douglas,1,US,1602185586,31,80.01,41.3,-96.17,13.87
88,dauphin,90,CA,1602185877,44,57.2,51.15,-100.05,12.75
89,troyes,100,FR,1602185877,77,60.8,48.33,4.08,10.29
90,east london,20,ZA,1602185396,93,66.2,-33.02,27.91,11.41
91,bat khela,0,PK,1602185877,36,70.7,34.62,71.97,6.17
92,saint-georges,20,GD,1602185393,74,86.0,12.06,-61.75,16.11
93,hithadhoo,89,MV,1602185388,73,82.47,-0.6,73.08,5.97
94,mar del plata,75,AR,1602185361,39,66.2,-38.0,-57.56,16.11
95,havre-saint-pierre,90,CA,1602185395,87,48.2,50.23,-63.6,17.22
96,puerto ayora,20,EC,1602185389,57,78.8,-0.74,-90.35,21.92
97,kahului,20,US,1602185188,55,86.0,20.89,-156.47,14.99
98,merauke,33,ID,1602185877,84,74.73,-8.47,140.33,12.66
99,itamaraca,20,BR,1602185878,69,82.4,-7.75,-34.83,8.05
100,walvis bay,0,NA,1602185391,82,57.2,-22.96,14.51,6.93
101,codrington,100,AU,1602185427,83,50.61,-38.27,141.97,16.87
102,tuatapere,4,NZ,1602185384,92,39.0,-46.13,167.68,1.01
103,yulara,0,AU,1602185391,57,51.8,-25.24,130.99,5.82
104,kavieng,100,PG,1602185386,75,81.81,-2.57,150.8,5.99
105,iqaluit,75,CA,1602185420,94,32.0,63.75,-68.51,2.24
106,yaan,30,NG,1602185878,85,75.92,7.38,8.57,4.9
107,hermanus,100,ZA,1602185388,86,55.99,-34.42,19.23,18.12
108,touho,28,NC,1602185878,80,73.04,-20.78,165.23,14.23
109,bongandanga,1,CD,1602185878,97,70.23,1.5,21.05,3.51
110,kidal,41,ML,1602185428,19,91.4,18.44,1.41,16.13
111,san carlos de bariloche,40,AR,1602185878,53,51.8,-41.15,-71.31,36.91
112,atuona,4,PF,1602185390,76,77.81,-9.8,-139.03,20.42
113,nazareno etla,75,MX,1602185878,31,78.8,17.18,-96.82,2.64
114,esperance,7,AU,1602185421,100,50.0,-33.87,121.9,5.82
115,khatanga,83,RU,1602185391,98,18.46,71.97,102.5,6.98
116,makakilo city,1,US,1602185686,61,82.4,21.35,-158.09,6.93
117,aswan,9,EG,1602185879,17,91.11,24.09,32.91,9.48
118,kodiak,75,US,1602185385,81,50.0,57.79,-152.41,8.55
119,takefu,75,JP,1602185879,77,62.6,35.9,136.17,6.93
120,kilindoni,0,TZ,1602185879,80,78.03,-7.91,39.67,11.88
121,hambantota,40,LK,1602185878,94,78.8,6.12,81.12,8.05
122,castro,72,BR,1602185409,65,72.25,-24.79,-50.01,4.25
123,tukrah,38,LY,1602185879,74,73.67,32.53,20.58,9.89
124,erenhot,0,CN,1602185878,44,47.28,43.65,111.98,11.21
125,scottsbluff,1,US,1602185879,27,82.0,41.87,-103.67,3.36
126,bahia blanca,0,AR,1602185879,25,69.58,-38.72,-62.27,18.57
127,sur,0,OM,1602185878,49,80.26,22.57,59.53,9.66
128,dicabisagan,100,PH,1602185879,84,77.63,17.08,122.42,6.73
129,angoche,0,MZ,1602185879,76,73.8,-16.23,39.91,11.14
130,vieques,40,PR,1602185425,74,84.2,18.43,-65.83,13.87
131,kuryk,0,KZ,1602185879,37,54.1,43.2,51.65,12.86
132,jieshou,56,CN,1602185880,79,59.54,33.26,115.36,4.97
133,port-gentil,40,GA,1602185392,88,78.8,-0.72,8.78,8.05
134,tomatlan,51,MX,1602185880,65,88.32,19.93,-105.25,9.82
135,marsh harbour,15,BS,1602185714,66,82.8,26.54,-77.06,8.9
136,saskylakh,59,RU,1602185396,91,11.26,71.92,114.08,9.08
137,lorengau,100,PG,1602185394,80,79.83,-2.02,147.27,1.45
138,anloga,75,GH,1602185880,83,80.6,5.79,0.9,11.41
139,arraial do cabo,75,BR,1602185386,88,75.2,-22.97,-42.03,8.05
140,saurimo,87,AO,1602185880,85,67.42,-9.66,20.39,3.47
141,aksu,68,CN,1602185880,41,51.51,41.12,80.26,3.29
142,tallya,28,HU,1602185880,71,55.4,48.23,21.23,9.17
143,dongsheng,0,CN,1602185880,88,44.98,39.82,109.98,8.61
144,yumen,1,CN,1602185420,64,39.67,40.28,97.2,3.51
145,staryy nadym,0,RU,1602185881,96,28.53,65.61,72.68,10.09
146,pochutla,90,MX,1602185880,58,86.0,15.74,-96.47,6.67
147,igrim,100,RU,1602185881,88,38.77,63.19,64.42,8.52
148,kavaratti,100,IN,1602185437,82,81.73,10.57,72.64,10.29
149,barrow,90,US,1602185386,95,32.0,71.29,-156.79,24.16
150,butaritari,0,KI,1602185386,80,81.9,3.07,172.79,15.73
151,chokurdakh,94,RU,1602185392,99,23.77,70.63,147.92,7.94
152,isangel,13,VU,1602185389,79,72.75,-19.55,169.27,7.18
153,kaspiysk,0,RU,1602185880,59,60.8,42.88,47.64,15.66
154,zholymbet,92,KZ,1602185881,89,31.41,51.74,71.71,3.91
155,nerchinskiy zavod,100,RU,1602185410,84,34.47,51.31,119.61,6.15
156,vila franca do campo,40,PT,1602185395,94,69.8,37.72,-25.43,4.7
157,souris,75,CA,1602185882,27,64.99,49.62,-100.26,21.92
158,bud,8,US,1602185881,34,77.0,39.45,-86.18,1.39
159,jutai,100,BR,1602185882,86,78.01,-5.18,-68.9,4.43
160,rumford,0,US,1602185882,54,50.0,44.55,-70.55,10.0
161,margate,100,GB,1602185395,86,54.0,51.38,1.39,1.99
162,bathsheba,75,BB,1602185438,79,84.2,13.22,-59.52,8.05
163,zabol,0,AF,1602185882,38,52.59,32.25,67.25,7.02
164,asosa,0,ET,1602185881,72,63.77,10.07,34.53,4.14
165,severo-yeniseyskiy,65,RU,1602185429,98,20.84,60.37,93.04,6.82
166,lagoa,0,PT,1602185396,79,70.74,39.05,-27.98,2.59
167,solnechnyy,0,RU,1602185882,81,36.64,50.72,136.63,2.24
168,urumqi,95,CN,1602185882,60,42.8,43.8,87.6,6.71
169,saint-pierre,9,RE,1602185408,88,72.0,-21.34,55.48,4.7
170,skjervoy,20,NO,1602185882,66,53.6,70.03,20.97,12.75
171,trairi,97,BR,1602185882,74,79.93,-3.28,-39.27,14.27
172,cabinda,80,AO,1602185883,83,76.64,-5.55,12.2,8.97
173,oktyabrskiy,100,RU,1602185883,65,43.11,54.48,53.47,8.7
174,touros,20,BR,1602185883,62,84.2,-5.2,-35.46,16.11
175,catuday,100,PH,1602185882,81,79.48,16.29,119.81,9.53
176,souillac,75,MU,1602185428,88,75.2,-20.52,57.52,10.29
177,ellensburg,1,US,1602185616,40,73.4,47.0,-120.55,23.04
178,kutum,41,SD,1602185883,25,82.26,14.2,24.67,4.16
179,alofi,100,NU,1602185408,94,77.0,-19.06,-169.92,8.05
180,kaduy,75,RU,1602185883,76,55.4,59.2,37.15,8.95
181,komsomolskiy,100,UZ,1602185434,31,57.2,40.43,71.72,2.24
182,labytnangi,50,RU,1602185883,92,31.82,66.66,66.42,4.27
183,lata,11,PT,1602185883,85,64.99,40.16,-8.33,3.0
184,norman wells,90,CA,1602185416,86,39.2,65.28,-126.83,3.36
185,bethel,1,US,1602185270,39,62.6,41.37,-73.41,11.41
186,nemuro,2,JP,1602185430,65,53.33,43.32,145.57,13.65
187,murray bridge,98,AU,1602185884,89,46.99,-35.12,139.27,5.93
188,aldan,74,RU,1602185884,92,31.87,58.6,125.39,5.7
189,ayr,20,GB,1602185883,71,50.0,55.46,-4.63,9.17
190,port macquarie,2,AU,1602185410,99,59.0,-31.43,152.92,10.18
191,narsaq,75,GL,1602185386,86,39.2,60.92,-46.05,4.7
192,anadyr,90,RU,1602185384,100,33.8,64.75,177.48,13.42
193,port blair,100,IN,1602185884,76,79.5,11.67,92.75,2.86
194,longyearbyen,75,SJ,1602185436,86,37.4,78.22,15.64,12.75
195,vao,0,NC,1602185395,86,71.06,-22.67,167.48,15.75
196,halmstad,100,SE,1602185884,87,53.01,56.67,12.86,8.05
197,saldanha,10,ZA,1602185884,82,59.0,-33.01,17.94,16.11
198,yambio,100,SS,1602185883,95,69.58,4.57,28.4,3.15
199,deputatskiy,97,RU,1602185884,97,18.59,69.3,139.9,4.85
200,aitape,100,PG,1602185884,85,77.94,-3.14,142.35,4.0
201,tevaitoa,2,PF,1602185884,77,79.11,-16.78,-151.5,18.41
202,klaksvik,0,FO,1602185388,75,42.8,62.23,-6.59,6.93
203,namibe,97,AO,1602185422,85,65.48,-15.2,12.15,6.96
204,nikolskoye,40,RU,1602185385,93,55.0,59.7,30.79,4.47
205,grindavik,40,IS,1602185412,80,41.0,63.84,-22.43,11.41
206,sorland,40,NO,1602185399,93,51.8,67.67,12.69,6.93
207,xining,8,CN,1602185436,65,42.37,36.62,101.77,2.75
208,alyangula,80,AU,1602185439,94,69.8,-13.85,136.42,7.25
209,tautira,20,PF,1602185885,62,84.2,-17.73,-149.15,6.93
210,chuy,0,UY,1602185388,44,59.9,-33.7,-53.46,7.83
211,avarua,50,CK,1602185391,88,78.8,-21.21,-159.78,13.87
212,ulaanbaatar,75,MN,1602185885,92,32.0,47.91,106.88,4.47
213,sola,75,VU,1602185885,88,80.6,-13.88,167.55,5.82
214,ordynskoye,0,RU,1602185885,97,27.73,54.37,81.9,7.78
215,arman,0,RU,1602185411,76,36.21,59.7,150.17,5.35
216,ancud,75,CL,1602185399,82,55.4,-41.87,-73.82,11.41
217,guarumal,20,PA,1602185885,66,86.0,8.35,-82.53,6.93
218,lavrentiya,100,RU,1602185416,93,40.6,65.58,-171.0,20.83
219,ippy,88,CF,1602185885,92,68.4,6.27,21.22,2.04
220,sao miguel do araguaia,0,BR,1602185434,13,103.5,-13.28,-50.16,4.41
221,provideniya,90,RU,1602185400,93,44.6,64.38,-173.3,15.66
222,namatanai,97,PG,1602185393,82,79.21,-3.67,152.43,4.23
223,banda aceh,100,ID,1602185830,68,80.85,5.56,95.32,12.19
224,ust-nera,38,RU,1602185886,89,20.98,64.57,143.2,5.88
225,kastamonu,100,TR,1602185885,68,62.58,41.5,33.67,6.87
226,brae,13,GB,1602185385,71,50.0,60.4,-1.35,20.8
227,chimbarongo,97,CL,1602185886,28,69.8,-34.7,-71.05,13.87
228,kshenskiy,75,RU,1602185886,37,55.02,51.84,37.71,13.76
229,ponta delgada,40,PT,1602185429,94,69.8,37.73,-25.67,4.7
230,douala,40,CM,1602185745,88,80.6,4.05,9.7,2.24
231,sept-iles,75,CA,1602185200,61,46.4,50.2,-66.38,21.92
232,cayenne,0,GF,1602185379,52,89.6,4.93,-52.33,14.99
233,whitehorse,75,CA,1602185828,74,37.99,60.72,-135.05,14.99
234,puerto madero,40,MX,1602185885,74,86.0,14.72,-92.42,6.93
235,millbrook,20,US,1602185702,61,86.0,32.48,-86.36,4.7
236,kawalu,100,ID,1602185886,91,72.14,-7.38,108.21,1.43
237,igarka,100,RU,1602185886,99,30.36,67.47,86.58,6.04
238,upernavik,0,GL,1602185403,91,31.5,72.79,-56.15,5.19
239,bereda,11,ES,1602185392,99,60.01,43.27,-7.54,3.0
240,ribas do rio pardo,81,BR,1602185886,19,100.42,-20.44,-53.76,6.8
241,tagusao,100,PH,1602185887,82,79.03,9.19,117.81,4.09
242,haines junction,100,CA,1602185418,82,38.34,60.75,-137.51,3.89
243,faanui,11,PF,1602185393,79,78.37,-16.48,-151.75,18.99
244,piacabucu,20,BR,1602185887,80,78.22,-10.41,-36.43,13.49
245,yar-sale,0,RU,1602185389,92,31.19,66.83,70.83,9.31
246,briancon,96,FR,1602185887,85,53.01,44.9,6.65,3.42
247,airai,82,TL,1602185412,100,61.02,-8.93,125.41,2.64
248,tambura,100,SS,1602185887,94,70.14,5.6,27.47,3.15
249,camana,65,PE,1602185887,69,66.18,-16.62,-72.71,7.85
250,gua,1,IN,1602185886,94,73.51,22.2,85.38,1.03
251,bandarbeyla,52,SO,1602185420,82,78.66,9.49,50.81,8.9
252,vila velha,75,BR,1602185770,83,82.0,-20.33,-40.29,13.87
253,elblag,100,PL,1602185887,81,53.01,54.15,19.41,4.0
254,acapulco,75,MX,1602185225,74,87.8,16.86,-99.89,5.26
255,pinas,90,EC,1602185887,83,78.8,-3.67,-79.65,5.82
256,puerto carreno,32,CO,1602185887,73,85.69,6.19,-67.49,8.3
257,acheng,100,CN,1602185887,70,48.2,45.55,126.98,8.95
258,kaseda,100,JP,1602185824,78,70.11,31.42,130.32,18.32
259,huilong,96,CN,1602185888,79,66.99,31.81,121.66,9.01
260,hilton head island,1,US,1602185888,83,82.4,32.22,-80.75,4.7
261,petatlan,40,MX,1602185888,63,91.4,17.52,-101.27,8.05
262,richards bay,0,ZA,1602185887,73,70.0,-28.78,32.04,18.01
263,waingapu,0,ID,1602185888,77,78.12,-9.66,120.26,5.39
264,manali,75,IN,1602185888,89,84.2,13.17,80.27,3.36
265,hirara,99,JP,1602185888,80,78.69,24.8,125.28,18.92
266,aklavik,90,CA,1602185642,100,35.6,68.22,-135.01,8.05
267,nantucket,1,US,1602185426,36,64.4,41.28,-70.1,16.11
268,husavik,90,IS,1602185400,86,41.0,66.04,-17.34,11.3
269,victoria,71,HK,1602185102,70,75.99,22.29,114.16,11.3
270,leh,0,IN,1602185888,51,40.51,34.17,77.58,4.34
271,avera,1,US,1602185389,40,86.0,33.19,-82.53,4.65
272,naze,75,JP,1602185397,94,75.2,28.37,129.48,18.34
273,orbetello,2,IT,1602185888,87,62.01,42.44,11.22,1.12
274,vilyuysk,100,RU,1602185889,94,27.64,63.76,121.62,4.45
275,kirakira,83,SB,1602185889,83,78.94,-10.45,161.92,9.15
276,ahipara,100,NZ,1602185392,78,57.27,-35.17,173.17,14.9
277,tecoanapa,68,MX,1602185889,74,83.8,16.52,-98.75,6.15
278,mendi,88,PG,1602185889,99,53.01,-6.18,143.65,1.68
279,eydhafushi,32,MV,1602185889,75,82.94,5.1,73.07,11.5
280,maragogi,15,BR,1602185736,81,77.43,-9.01,-35.22,9.6
281,nouadhibou,1,MR,1602185889,65,78.8,20.93,-17.03,10.29
282,abu samrah,0,SY,1602185385,17,74.52,35.3,37.18,11.14
283,sao filipe,100,CV,1602185412,79,82.06,14.9,-24.5,6.24
284,udachnyy,75,RU,1602185889,92,23.0,66.42,112.4,4.47
285,cap malheureux,0,MU,1602185388,83,75.0,-19.98,57.61,5.01
286,aleysk,0,RU,1602185889,95,28.98,52.49,82.78,5.77
287,honningsvag,40,NO,1602185394,81,51.8,70.98,25.97,9.17
288,saiki,100,JP,1602185613,86,63.0,32.95,131.9,5.99
289,matagami,75,CA,1602185890,56,41.0,49.75,-77.63,8.05
290,corn island,100,NI,1602185890,71,82.36,12.17,-83.04,5.32
291,beringovskiy,100,RU,1602185440,93,37.49,63.05,179.32,16.35
292,goundam,0,ML,1602185392,11,98.11,16.41,-3.67,10.33
293,los llanos de aridane,20,ES,1602185889,78,75.2,28.66,-17.92,8.05
294,adrar,0,MR,1602185413,16,96.69,20.5,-10.07,10.2
295,kloulklubed,100,PW,1602185890,80,82.56,7.04,134.26,13.71
296,bulgan,100,MN,1602185889,93,33.26,48.81,103.53,1.52
297,birnin kebbi,26,NG,1602185890,52,84.94,12.45,4.2,7.81
298,minggang,92,CN,1602185890,71,61.23,32.46,114.05,4.94
299,todos santos,0,MX,1602185890,77,84.99,23.45,-110.22,5.01
300,corbelia,1,BR,1602185890,35,91.38,-24.8,-53.31,12.64
301,cleveland,40,US,1602185816,48,66.99,41.5,-81.7,10.29
302,tirau,31,NZ,1602185890,75,54.0,-37.98,175.75,5.01
303,lebedinyy,86,RU,1602185890,91,31.8,58.52,125.52,8.77
304,pacific grove,90,US,1602185388,77,63.0,36.62,-121.92,6.93
305,qianguo,100,CN,1602185890,65,55.04,45.12,124.86,13.69
306,portland,90,US,1602185379,77,61.0,45.52,-122.68,5.82
307,san vicente,71,AR,1602185891,56,82.54,-26.62,-54.13,5.61
308,prince rupert,90,CA,1602185242,76,50.0,54.32,-130.32,4.7
309,puerto escondido,75,MX,1602185891,66,84.2,15.85,-97.07,8.05
310,mareeba,96,AU,1602185891,88,66.2,-17.0,145.43,9.17
311,upington,51,ZA,1602185891,36,78.8,-28.45,21.26,5.82
312,yeppoon,0,AU,1602185891,87,60.8,-23.13,150.73,0.89
313,tessaoua,22,NE,1602185891,38,90.75,13.76,7.99,6.15
314,ayan,97,RU,1602185408,63,45.9,56.45,138.17,6.6
315,awjilah,0,LY,1602185427,75,73.65,29.11,21.29,18.75
316,jalu,0,LY,1602185413,72,74.8,29.03,21.55,18.9
317,salinas,90,US,1602185890,72,64.0,36.68,-121.66,5.82
318,coaraci,0,BR,1602185891,64,81.16,-14.64,-39.55,5.97
319,chapais,90,CA,1602185891,69,35.6,49.78,-74.85,16.11
320,quetigny,40,FR,1602185891,82,57.2,47.32,5.12,4.7
321,sao joao da barra,75,BR,1602185891,74,82.4,-21.64,-41.05,10.29
322,sovetskiy,100,RU,1602185892,89,37.9,61.36,63.58,7.96
323,bengkulu,100,ID,1602185391,91,72.81,-3.8,102.27,5.35
324,barrhead,40,GB,1602185656,81,46.0,55.8,-4.39,8.05
325,arona,20,ES,1602185892,73,77.0,28.1,-16.68,8.05
326,ormara,0,PK,1602185892,73,80.47,25.21,64.64,7.78
327,pisco,4,PE,1602185437,68,68.0,-13.7,-76.22,8.05
328,rawson,99,AR,1602185412,32,63.79,-43.3,-65.1,24.02
329,ostrovnoy,96,RU,1602185891,88,49.32,68.05,39.51,14.07
330,kununurra,75,AU,1602185892,88,78.8,-15.77,128.73,2.24
331,chase,75,CA,1602185892,82,57.2,50.82,-119.69,6.89
332,ingham,75,US,1602185892,37,68.0,42.6,-84.38,10.29
333,voyvozh,100,RU,1602185892,97,41.5,62.89,54.96,6.96
334,kapuskasing,90,CA,1602185892,52,46.4,49.42,-82.43,9.17
335,gdov,100,RU,1602185892,85,54.81,58.74,27.81,9.71
336,dunedin,0,NZ,1602185241,67,46.0,-45.87,170.5,14.0
337,mishkino,100,RU,1602185892,79,35.89,55.34,63.92,10.11
338,almeirim,93,BR,1602185892,32,95.67,-1.52,-52.58,4.76
339,bardiyah,43,LY,1602185429,85,74.71,31.76,25.09,14.18
340,jati,0,PK,1602185893,74,80.13,24.35,68.27,8.12
341,labelle,55,US,1602185642,49,93.2,26.76,-81.44,5.82
342,haapiti,20,PF,1602185893,62,84.2,-17.57,-149.87,6.93
343,licata,0,IT,1602185892,68,68.0,37.11,13.95,4.7
344,meulaboh,100,ID,1602185391,80,76.01,4.14,96.13,4.43
345,pangai,40,TO,1602185893,83,78.8,-19.8,-174.35,8.05
346,sitangkai,100,PH,1602185893,70,83.12,4.66,119.39,1.7
347,berlevag,35,NO,1602185431,81,50.0,70.86,29.09,14.99
348,sao jose da coroa grande,18,BR,1602185892,79,78.04,-8.9,-35.15,9.44
349,grand gaube,1,MU,1602185892,83,75.0,-20.01,57.66,3.0
350,roald,75,NO,1602185893,93,50.0,62.58,6.13,6.93
351,lasa,76,IT,1602185424,87,51.01,46.62,10.7,3.36
352,ihosy,38,MG,1602185893,80,65.64,-22.4,46.12,9.62
353,cherskiy,66,RU,1602185425,97,27.3,68.75,161.3,14.32
354,nuuk,75,GL,1602185893,93,37.4,64.18,-51.72,3.36
355,sfantu gheorghe,100,RO,1602185893,95,55.0,45.87,25.78,1.99
356,kalemie,92,CD,1602185894,69,75.42,-5.95,29.19,9.42
357,hobyo,91,SO,1602185387,82,79.99,5.35,48.53,18.12
358,clyde river,75,CA,1602185424,100,19.4,70.47,-68.59,8.05
359,banjar,40,ID,1602185434,100,78.8,-8.19,114.97,3.36
360,san,3,ML,1602185893,47,88.02,13.3,-4.9,8.66
361,cooma,40,AU,1602185894,65,46.4,-36.23,149.13,17.22
362,bonthe,58,SL,1602185894,86,78.87,7.53,-12.51,6.26
363,barghat,26,IN,1602185893,87,71.26,22.03,79.72,5.35
364,havoysund,40,NO,1602185390,81,53.6,71.0,24.66,9.17
365,tarakan,100,ID,1602185894,85,78.8,3.3,117.63,6.71
366,hailey,5,US,1602185894,15,69.8,43.52,-114.32,10.29
367,guerrero negro,0,MX,1602185422,46,81.43,27.98,-114.06,15.52
368,sabang,100,ID,1602185894,73,81.95,5.89,95.32,19.22
369,aviles,90,ES,1602185596,93,64.99,43.55,-5.92,0.98
370,asau,100,RO,1602185434,98,57.99,46.43,26.4,3.91
371,san patricio,75,US,1602185894,55,91.0,28.02,-97.52,11.41
372,dezhou,0,CN,1602185894,47,56.39,37.45,116.29,5.1
373,daman,63,IN,1602185895,67,81.72,20.42,72.85,5.08
374,iaciara,34,BR,1602185895,12,102.36,-14.1,-46.63,4.21
375,te anau,51,NZ,1602185396,89,35.2,-45.42,167.72,1.32
376,vardo,75,NO,1602185387,87,50.0,70.37,31.11,13.87
377,laguna,1,US,1602185185,59,66.2,38.42,-121.42,8.05
378,santa lucia,45,ES,1602185895,78,77.0,27.91,-15.54,17.22
379,berezanskaya,0,RU,1602185895,39,62.65,45.71,39.59,17.2
380,maniitsoq,100,GL,1602185431,90,38.91,65.42,-52.9,16.82
381,alice town,53,BS,1602185895,75,82.83,25.72,-79.3,10.94
382,maneadero,0,MX,1602185895,67,75.0,31.72,-116.57,3.0
383,mafinga,49,TZ,1602185895,48,75.69,-7.25,35.07,8.1
384,maumere,100,ID,1602185895,78,79.29,-8.62,122.21,4.56
385,talagang,0,PK,1602185895,28,74.43,32.93,72.42,0.83
386,elk city,1,US,1602185895,33,86.0,35.41,-99.4,9.17
387,teya,84,RU,1602185395,95,24.6,60.38,92.63,5.5
388,alice springs,0,AU,1602185763,81,53.6,-23.7,133.88,8.79
389,sobolevo,100,RU,1602185896,90,55.09,54.43,31.9,9.01
390,temba,0,ZA,1602185896,64,68.0,-25.38,28.26,5.82
391,umba,99,RU,1602185896,94,47.86,66.69,34.34,7.14
392,ischia,0,IT,1602185896,68,70.0,40.73,13.95,8.05
393,morros,0,BR,1602185896,9,102.02,-9.45,-46.3,10.27
394,lishu,100,CN,1602185896,57,56.08,43.3,124.33,12.17
395,baykit,44,RU,1602185896,94,24.06,61.67,96.37,4.03
396,nicolas bravo,40,MX,1602185896,66,87.8,18.45,-88.92,3.22
397,xai-xai,0,MZ,1602185896,68,67.89,-25.05,33.64,14.5
398,zhigansk,99,RU,1602185426,96,28.96,66.77,123.37,9.75
399,samoded,67,RU,1602185896,97,44.51,63.61,40.51,3.89
400,valparaiso,0,CL,1602185897,35,77.0,-33.04,-71.63,17.22
401,borovoy,40,RU,1602185431,92,23.0,55.43,86.08,11.18
402,buala,100,SB,1602185429,80,80.62,-8.14,159.59,7.2
403,ayagoz,93,KZ,1602185897,92,30.47,47.97,80.44,15.57
404,rio gallegos,40,AR,1602185714,47,55.4,-51.62,-69.22,24.16
405,pandamatenga,20,BW,1602185896,56,74.75,-18.53,25.63,10.98
406,buluang,100,PH,1602185896,90,75.6,13.31,123.34,1.72
407,escarcega,100,MX,1602185897,65,85.32,18.61,-90.75,6.51
408,amot,100,NO,1602185897,90,50.0,59.57,7.99,5.01
409,la ronge,90,CA,1602185389,81,42.8,55.1,-105.28,19.46
410,hovd,96,MN,1602185435,73,34.47,48.01,91.64,5.64
411,usta muhammad,0,PK,1602185897,20,79.03,28.18,68.04,6.33
412,tilichiki,50,RU,1602185897,92,26.89,60.47,166.1,8.75
413,liku,98,ID,1602185897,84,75.83,-0.73,119.89,2.15
414,morada nova,58,BR,1602185831,37,91.02,-5.11,-38.37,13.78
415,kirovskiy,0,RU,1602185897,75,40.95,45.09,133.51,5.41
416,kismayo,16,SO,1602185432,85,78.66,-0.36,42.55,13.67
417,killybegs,40,IE,1602185897,71,51.8,54.63,-8.45,20.8
418,mount gambier,90,AU,1602185898,87,48.2,-37.83,140.77,17.22
419,klyuchi,0,RU,1602185898,93,29.16,52.27,79.17,7.11
420,batagay-alyta,100,RU,1602185897,85,23.16,67.8,130.41,3.83
421,straumen,75,NO,1602185897,93,52.0,63.87,11.3,6.93
422,pangnirtung,90,CA,1602185398,69,35.6,66.15,-65.71,12.75
423,villa constitucion,0,AR,1602185898,10,84.99,-33.23,-60.33,4.0
424,orleans,75,US,1602185704,78,84.99,30.03,-89.95,4.7
425,ilulissat,20,GL,1602185400,89,32.0,69.22,-51.1,5.82
426,toguchin,43,RU,1602185898,98,24.51,55.24,84.39,6.78
427,bilibino,100,RU,1602185898,95,21.52,68.05,166.44,2.26
428,porto novo,40,BJ,1602185827,88,80.6,6.5,2.6,12.75
429,port hardy,90,CA,1602185411,100,50.0,50.7,-127.42,2.24
430,bavly,100,RU,1602185898,65,42.67,54.39,53.26,10.98
431,hami,0,CN,1602185387,49,43.92,42.8,93.45,1.01
432,zheleznodorozhnyy,99,RU,1602185898,70,57.0,55.75,38.0,4.47
433,port hedland,0,AU,1602185898,59,60.8,-20.32,118.57,5.82
434,neubrandenburg,100,DE,1602185899,99,55.99,53.57,13.27,17.36
435,bambanglipuro,98,ID,1602185899,82,76.64,-7.95,110.28,7.18
436,la rioja,48,ES,1602185426,87,64.0,42.25,-2.5,5.35
437,fortuna,75,US,1602185424,93,61.0,40.6,-124.16,3.36
438,nipawin,90,CA,1602185898,50,53.6,53.37,-104.0,18.34
439,catalina,41,US,1602185899,9,98.01,32.51,-110.92,3.0
440,pangody,95,RU,1602185898,96,30.96,65.85,74.49,11.54
441,tupik,78,RU,1602185410,95,30.11,54.43,119.93,2.17
442,santa maria,0,BR,1602185899,60,72.43,-29.68,-53.81,7.63
443,caravelas,0,BR,1602185424,79,78.78,-17.71,-39.25,13.44
444,pandan,100,PH,1602185899,86,78.4,14.05,124.17,1.34
445,riyadh,0,SA,1602185899,22,80.6,24.69,46.72,2.24
446,tynda,0,RU,1602185899,95,28.51,55.17,124.72,1.54
447,ogembo,81,KE,1602185899,79,63.43,-0.8,34.73,2.57
448,ulladulla,40,AU,1602185430,62,57.2,-35.35,150.47,12.75
449,alghero,73,IT,1602185899,82,57.99,40.56,8.32,1.99
450,samarai,83,PG,1602185392,78,75.99,-10.62,150.67,7.49
451,markova,75,UA,1602185900,100,55.4,48.68,24.41,11.18
452,port augusta,0,AU,1602185899,93,44.6,-32.5,137.77,5.82
453,jawhar,0,SO,1602185899,73,80.31,2.78,45.5,8.61
454,mathbaria,9,BD,1602185899,87,78.71,22.29,89.96,3.58
455,laranjeiras do sul,87,BR,1602185899,57,81.82,-25.41,-52.42,1.77
456,oksfjord,13,NO,1602185396,76,53.6,70.24,22.35,13.87
457,maxcanu,75,MX,1602185900,79,84.99,20.58,-89.98,8.05
458,bangolo,100,CI,1602185899,96,72.66,7.01,-7.47,2.46
459,karjat,40,IN,1602185899,79,86.0,18.92,73.33,2.33
460,contai,0,IN,1602185397,87,80.8,21.78,87.75,5.41
461,la paz,20,BO,1602185693,25,62.6,-16.5,-68.15,13.87
462,stokmarknes,40,NO,1602185900,93,52.0,68.56,14.91,4.7
463,khani,0,GE,1602185900,37,71.6,41.96,42.96,40.26
464,alta floresta,58,BR,1602185422,23,98.91,-9.88,-56.09,3.13
465,atar,0,MR,1602185900,37,102.2,20.52,-13.05,20.8
466,necochea,51,AR,1602185900,52,61.0,-38.55,-58.74,4.0
467,fontem,99,CM,1602185900,94,68.0,5.47,9.88,2.08
468,zhaodong,94,CN,1602185901,70,48.2,46.08,125.98,8.95
469,alto araguaia,0,BR,1602185901,11,102.54,-17.31,-53.22,6.73
470,changji,49,CN,1602185901,60,42.8,44.02,87.32,6.71
471,zarubino,17,RU,1602185901,74,51.57,42.63,131.09,3.8
472,cortez,1,US,1602185901,9,78.8,37.35,-108.59,11.41
473,cairns,100,AU,1602185439,88,66.2,-16.92,145.77,9.17
474,orcopampa,37,PE,1602185901,43,55.54,-15.27,-72.34,6.6
475,caconda,0,AO,1602185901,49,66.15,-13.73,15.07,7.65
476,damghan,0,IR,1602185901,52,57.09,36.17,54.35,8.79
477,togur,100,RU,1602185901,99,31.1,58.36,82.83,10.25
478,lebyazhye,100,RU,1602185901,86,33.87,55.27,66.49,10.18
479,magistralnyy,100,RU,1602185901,92,31.1,56.17,107.45,2.77
480,boa vista,75,BR,1602185901,44,93.2,2.82,-60.67,6.93
481,coahuayana,75,MX,1602185901,69,82.4,18.73,-103.68,9.17
482,ozu,100,JP,1602185901,68,66.99,33.5,132.55,1.01
483,gonbad-e qabus,74,IR,1602185901,74,78.8,37.25,55.17,2.24
484,ankazoabo,0,MG,1602185902,58,67.62,-22.28,44.52,6.96
485,tessalit,37,ML,1602185391,11,94.53,20.2,1.01,10.58
486,berezovyy,0,RU,1602185901,82,35.78,51.67,135.7,3.33
487,bilma,71,NE,1602185421,12,88.68,18.69,12.92,5.01
488,mokhsogollokh,39,RU,1602185902,93,27.28,61.47,128.92,2.51
489,belaya gora,85,RU,1602185902,98,24.85,68.53,146.42,5.53
490,noumea,40,NC,1602185405,100,73.99,-22.28,166.46,8.05
491,leningradskiy,100,RU,1602185440,98,31.93,69.38,178.42,12.08
492,paamiut,100,GL,1602185390,83,42.39,61.99,-49.67,7.61
493,syedove,0,UA,1602185902,100,63.0,47.08,38.16,25.99
494,talnakh,90,RU,1602185432,92,28.4,69.49,88.4,13.42
495,burgeo,100,CA,1602185902,90,53.46,47.62,-57.62,21.0
496,nanortalik,100,GL,1602185414,84,40.71,60.14,-45.24,11.86
497,abha,0,SA,1602185393,22,71.6,18.22,42.51,8.05
498,port said,0,EG,1602185902,78,82.4,31.26,32.28,11.41
499,karasjok,90,NO,1602185903,87,51.8,69.47,25.51,25.28
500,yerbogachen,86,RU,1602185903,93,29.46,61.28,108.01,9.22
501,benjamin constant,40,BR,1602185903,55,89.6,-4.38,-70.03,4.7
502,mahajanga,40,MG,1602185903,74,78.8,-15.72,46.32,6.93
503,mahon,0,ES,1602185903,77,66.2,39.89,4.27,2.24
504,puerto colombia,40,CO,1602185903,70,87.8,10.99,-74.95,4.7
505,sumbuya,57,SL,1602185903,90,76.57,7.65,-11.96,3.02
506,dzhebariki-khaya,1,RU,1602185903,95,28.83,62.22,135.8,2.39
507,san quintin,0,MX,1602185411,61,73.87,30.48,-115.95,15.01
508,kuchl,75,AT,1602185902,76,53.6,47.63,13.14,8.05
509,nguruka,62,TZ,1602185903,40,74.93,-5.11,31.04,4.83
510,guican,100,CO,1602185903,83,53.64,6.46,-72.41,1.57
511,constitucion,97,CL,1602185395,56,59.47,-35.33,-72.42,18.32
512,labuhan,92,ID,1602185903,78,78.73,-6.88,112.21,8.99
513,okhotsk,0,RU,1602185903,65,42.08,59.38,143.3,15.93
514,lakes entrance,46,AU,1602185415,67,57.0,-37.88,147.98,11.18
515,jardim,55,BR,1602185904,24,97.68,-21.48,-56.14,4.88
516,road town,20,VG,1602185904,70,86.0,18.42,-64.62,6.93
517,miami,40,US,1602185850,55,89.01,25.77,-80.19,13.87
518,kondinskoye,100,RU,1602185903,93,32.63,59.65,67.41,8.72
519,lazaro cardenas,17,MX,1602185401,72,85.32,17.96,-102.2,9.1
520,gimli,100,CA,1602185402,99,57.99,50.63,-96.99,5.01
521,luba,40,GQ,1602185904,94,78.8,3.46,8.55,5.82
522,kundiawa,99,PG,1602185904,79,60.71,-6.02,144.97,1.19
523,krasnyy chikoy,100,RU,1602185904,88,37.11,50.36,108.75,7.16
524,maragheh,20,IR,1602185904,54,55.4,37.39,46.24,13.87
525,raudeberg,100,NO,1602185904,91,48.0,61.99,5.14,6.91
526,neiafu,75,TO,1602185904,88,78.8,-18.65,-173.98,6.93
527,preobrazheniye,0,RU,1602185904,55,49.66,42.9,133.91,4.43
528,montijo,42,PT,1602185662,72,68.0,38.71,-8.97,8.05
529,pyay,99,MM,1602185904,94,74.7,18.82,95.22,0.98
530,aksarka,0,RU,1602185429,94,28.69,66.56,67.8,3.31
531,affery,28,CI,1602185905,97,74.16,6.32,-3.96,3.15
532,nagornskiy,100,RU,1602185905,59,39.0,58.77,57.55,4.0
533,ostersund,94,SE,1602185905,93,48.2,63.18,14.64,8.05
534,ketchikan,75,US,1602185905,76,48.2,55.34,-131.65,2.24
535,vengerovo,85,RU,1602185905,96,31.53,55.68,76.75,9.71
536,havelock,1,US,1602185904,48,84.0,34.88,-76.9,6.93
537,pamanukan,99,ID,1602185905,78,79.97,-6.28,107.81,2.89
538,yenagoa,100,NG,1602185905,94,75.34,4.92,6.26,1.45
539,saint-augustin,100,CA,1602185400,88,53.98,51.23,-58.65,12.53
540,ludvika,100,SE,1602185905,93,51.8,60.15,15.19,8.05
541,tres picos,68,MX,1602185905,69,82.78,15.87,-93.53,4.05
542,parrita,75,CR,1602185384,83,73.4,9.52,-84.32,3.36
543,gold coast,1,AU,1602185728,72,66.2,-28.0,153.43,10.29
544,hasaki,75,JP,1602185386,93,60.8,35.73,140.83,10.29
545,killarney,40,IE,1602185906,71,51.8,52.05,-9.52,6.93
546,manacapuru,40,BR,1602185905,66,89.6,-3.3,-60.62,5.82
547,liuhe,100,CN,1602185906,71,50.34,42.24,125.72,5.17
548,bage,20,BR,1602185905,60,71.6,-31.33,-54.11,9.17
549,ulaangom,88,MN,1602185906,80,35.74,49.98,92.07,4.72
550,sundargarh,48,IN,1602185906,86,76.44,22.12,84.03,1.3
551,asheville,1,US,1602185906,42,80.6,35.6,-82.55,6.93
552,shush,0,IR,1602185906,26,65.61,32.19,48.24,2.53
553,bayir,75,TR,1602185906,78,75.2,37.27,28.22,8.05
554,krasnaya gorbatka,66,RU,1602185906,47,50.92,55.87,41.76,8.52
555,mecca,0,SA,1602185906,39,85.91,21.43,39.83,4.25
556,hamilton,1,US,1602185429,33,77.0,39.18,-84.53,3.36
557,aurillac,100,FR,1602185906,100,57.99,44.92,2.45,2.24
558,karaton,40,ID,1602185906,78,80.01,-6.34,106.1,4.7
559,fort frances,88,CA,1602185906,52,57.99,48.6,-93.4,5.19
560,burnie,100,AU,1602185426,86,51.01,-41.07,145.92,5.01
561,mount isa,0,AU,1602185387,22,69.8,-20.73,139.5,12.75
562,sao gabriel da cachoeira,89,BR,1602185415,77,84.54,-0.13,-67.09,0.45
